$GPVTG,,T,,M,0.003,N,0.005,K,A*25
$GPGGA,113046.00,4210.15392,N,00841.32228,W,1,11,1.14,441.6,M,51.9,M,,*4E
$GPGSA,A,3,22,19,20,32,16,28,27,30,11,04,01,,1.68,1.14,1.23*0C
$GPGSV,4,1,14,22,37,055,37,18,05,040,,19,75,077,48,20,06,210,40*74
$GPGSV,4,2,14,07,02,252,41,32,42,182,51,14,14,094,,16,12,170,38*73
$GPGSV,4,3,14,28,17,321,31,27,47,113,38,30,07,282,44,11,56,287,40*7D
$GPGSV,4,4,14,04,57,274,41,01,40,265,49*77
$GPGLL,4210.15392,N,00841.32228,W,113046.00,A,A*75
$GPZDA,113046.00,04,11,2014,00,00*64
$GPRMC,113047.00,A,4210.15389,N,00841.32229,W,0.021,90.13,041114,,,A*41
$GPVTG,90.13,T,,M,0.021,N,0.038,K,A*0E
$GPGGA,113047.00,4210.15389,N,00841.32229,W,1,11,1.14,441.6,M,51.9,M,,*44
$GPGSA,A,3,22,19,20,32,16,28,27,30,11,04,01,,1.68,1.14,1.23*0C
$GPGSV,4,1,14,22,37,055,37,18,05,040,,19,75,077,49,20,06,210,40*75
$GPGSV,4,2,14,07,02,252,40,32,42,182,51,14,14,094,,16,12,170,38*72
$GPGSV,4,3,14,28,17,321,30,27,47,113,38,30,07,282,45,11,56,287,40*7D
$GPGSV,4,4,14,04,57,274,39,01,40,265,49*78
$GPGLL,4210.15389,N,00841.32229,W,113047.00,A,A*7F
$GPZDA,113047.00,04,11,2014,00,00*65
$GPRMC,113048.00,A,4210.15388,N,00841.32229,W,0.013,,041114,,,A*6B
$GPVTG,,T,,M,0.013,N,0.024,K,A*27
$GPGGA,113048.00,4210.15388,N,00841.32229,W,1,11,1.50,441.6,M,51.9,M,,*4A
$GPGSA,A,3,22,19,20,32,16,28,27,30,11,04,01,,2.19,1.50,1.59*04
$GPGSV,4,1,14,22,37,055,38,18,05,040,,19,75,077,49,20,06,210,40*7A
$GPGSV,4,2,14,07,02,252,39,32,42,182,51,14,14,094,,16,12,170,38*7C
$GPGSV,4,3,14,28,17,321,26,27,47,113,38,30,07,282,44,11,56,287,40*7B
$GPGSV,4,4,14,04,57,274,39,01,40,265,49*78
$GPGLL,4210.15388,N,00841.32229,W,113048.00,A,A*71
$GPZDA,113048.00,04,11,2014,00,00*6A
$GPRMC,113049.00,A,4210.15387,N,00841.32229,W,0.024,88.84,041114,,,A*43
$GPVTG,88.84,T,,M,0.024,N,0.045,K,A*06
$GPGGA,113049.00,4210.15387,N,00841.32229,W,1,11,1.14,441.5,M,51.9,M,,*47
$GPGSA,A,3,22,19,20,32,16,28,27,30,11,04,01,,1.68,1.14,1.23*0C
$GPGSV,4,1,14,22,37,055,38,18,05,040,,19,75,077,49,20,06,210,40*7A
$GPGSV,4,2,14,07,02,252,38,32,42,182,51,14,15,093,,16,12,170,38*7B
$GPGSV,4,3,14,28,17,321,33,27,47,113,38,30,07,282,44,11,56,287,40*7F
$GPGSV,4,4,14,04,57,274,39,01,40,265,49*78
$GPGLL,4210.15387,N,00841.32229,W,113049.00,A,A*7F
$GPZDA,113049.00,04,11,2014,00,00*6B
$GPRMC,113050.00,A,4210.15386,N,00841.32230,W,0.017,,041114,,,A*60
$GPVTG,,T,,M,0.017,N,0.032,K,A*24
$GPGGA,113050.00,4210.15386,N,00841.32230,W,1,11,1.14,441.5,M,51.9,M,,*46
$GPGSA,A,3,22,19,20,32,16,28,27,30,11,04,01,,1.68,1.14,1.23*0C
$GPGSV,4,1,14,22,37,055,38,18,05,040,,19,75,077,49,20,06,210,40*7A
$GPGSV,4,2,14,07,02,252,37,32,42,182,51,14,15,093,,16,12,170,37*7B
$GPGSV,4,3,14,28,17,321,33,27,47,113,38,30,07,282,44,11,56,287,41*7E
$GPGSV,4,4,14,04,57,274,39,01,40,265,49*78
$GPGLL,4210.15386,N,00841.32230,W,113050.00,A,A*7E
$GPZDA,113050.00,04,11,2014,00,00*63
$GPRMC,113051.00,A,4210.15385,N,00841.32231,W,0.011,,041114,,,A*65
$GPVTG,,T,,M,0.011,N,0.020,K,A*21
$GPGGA,113051.00,4210.15385,N,00841.32231,W,1,11,1.14,441.5,M,51.9,M,,*45
$GPGSA,A,3,22,19,20,32,16,28,27,30,11,04,01,,1.68,1.14,1.23*0C
$GPGSV,4,1,14,22,37,055,38,18,05,040,,19,75,077,49,20,06,210,40*7A
$GPGSV,4,2,14,07,02,252,37,32,42,182,51,14,15,093,,16,11,170,38*77
$GPGSV,4,3,14,28,17,321,34,27,47,113,38,30,07,282,43,11,56,287,41*7E
$GPGSV,4,4,14,04,57,274,39,01,40,265,49*78
$GPGLL,4210.15385,N,00841.32231,W,113051.00,A,A*7D
$GPZDA,113051.00,04,11,2014,00,00*62
$GPRMC,113052.00,A,4210.15383,N,00841.32232,W,0.020,88.09,041114,,,A*46
$GPVTG,88.09,T,,M,0.020,N,0.037,K,A*02
$GPGGA,113052.00,4210.15383,N,00841.32232,W,1,11,1.14,441.4,M,51.9,M,,*42
$GPGSA,A,3,22,19,20,32,16,28,27,30,11,04,01,,1.68,1.14,1.23*0C
$GPGSV,4,1,14,22,37,055,38,18,05,040,,19,75,077,49,20,06,210,40*7A
$GPGSV,4,2,14,07,02,252,36,32,42,182,50,14,15,093,,16,11,170,38*77
$GPGSV,4,3,14,28,17,321,31,27,47,113,38,30,07,282,44,11,56,287,40*7D
$GPGSV,4,4,14,04,57,274,40,01,40,265,49*76
$GPGLL,4210.15383,N,00841.32232,W,113052.00,A,A*7B
$GPZDA,113052.00,04,11,2014,00,00*61
$GPRMC,113053.00,A,4210.15382,N,00841.32234,W,0.014,,041114,,,A*60
$GPVTG,,T,,M,0.014,N,0.027,K,A*23
$GPGGA,113053.00,4210.15382,N,00841.32234,W,1,11,1.50,441.4,M,51.9,M,,*44
$GPGSA,A,3,22,19,20,32,16,28,27,30,11,04,01,,2.19,1.50,1.59*04
$GPGSV,4,1,14,22,37,055,38,18,04,040,,19,75,077,49,20,06,210,38*74
$GPGSV,4,2,14,07,02,252,36,32,42,182,50,14,15,093,,16,11,170,38*77
$GPGSV,4,3,14,28,17,321,27,27,47,113,39,30,07,282,42,11,56,287,42*7F
$GPGSV,4,4,14,04,57,274,40,01,40,265,50*7E
$GPGLL,4210.15382,N,00841.32234,W,113053.00,A,A*7D
$GPZDA,113053.00,04,11,2014,00,00*60
$GPRMC,113054.00,A,4210.15381,N,00841.32235,W,0.007,,041114,,,A*67
$GPVTG,,T,,M,0.007,N,0.014,K,A*21
$GPGGA,113054.00,4210.15381,N,00841.32235,W,1,11,1.50,441.4,M,51.9,M,,*41
$GPGSA,A,3,22,19,20,32,16,28,27,30,11,04,01,,2.19,1.50,1.59*04
$GPGSV,4,1,14,22,37,055,37,18,04,040,,19,75,078,49,20,06,210,40*7B
$GPGSV,4,2,14,07,02,252,37,32,42,182,51,14,15,093,,16,11,170,39*76
$GPGSV,4,3,14,28,17,321,23,27,47,113,38,30,07,282,43,11,56,287,44*7D
$GPGSV,4,4,14,04,57,274,38,01,40,265,50*71
$GPGLL,4210.15381,N,00841.32235,W,113054.00,A,A*78
$GPZDA,113054.00,04,11,2014,00,00*67
$GPRMC,113055.00,A,4210.15381,N,00841.32237,W,0.000,,041114,,,A*63
$GPVTG,,T,,M,0.000,N,0.001,K,A*22
$GPGGA,113055.00,4210.15381,N,00841.32237,W,1,11,1.50,441.4,M,51.9,M,,*42
$GPGSA,A,3,22,19,20,32,16,28,27,30,11,04,01,,2.19,1.50,1.59*04
$GPGSV,4,1,14,22,37,055,38,18,04,040,,19,75,078,49,20,06,210,41*75
$GPGSV,4,2,14,07,02,252,35,32,42,182,51,14,15,093,,16,11,170,40*7A
$GPGSV,4,3,14,28,17,321,28,27,47,113,38,30,07,282,41,11,56,287,43*73
$GPGSV,4,4,14,04,57,274,39,01,40,265,49*78
$GPGLL,4210.15381,N,00841.32237,W,113055.00,A,A*7B
$GPZDA,113055.00,04,11,2014,00,00*66
$GPRMC,113056.00,A,4210.15383,N,00841.32239,W,0.044,86.95,041114,,,A*40
$GPVTG,86.95,T,,M,0.044,N,0.081,K,A*06
$GPGGA,113056.00,4210.15383,N,00841.32239,W,1,11,1.14,441.4,M,51.9,M,,*4D
$GPGSA,A,3,22,19,20,32,16,28,27,30,11,04,01,,1.68,1.14,1.23*0C
$GPGSV,4,1,14,22,37,055,38,18,04,040,,19,75,078,49,20,06,210,39*7A
$GPGSV,4,2,14,07,02,252,34,32,42,182,50,14,15,093,,16,11,170,39*74
$GPGSV,4,3,14,28,17,321,34,27,47,113,37,30,07,282,42,11,56,287,46*77
$GPGSV,4,4,14,04,57,274,40,01,40,265,48*77
$GPGLL,4210.15383,N,00841.32239,W,113056.00,A,A*74
$GPZDA,113056.00,04,11,2014,00,00*65
$GPRMC,113057.00,A,4210.15372,N,00841.32249,W,0.822,94.97,041114,,,A*41
$GPVTG,94.97,T,,M,0.822,N,1.522,K,A*02
$GPGGA,113057.00,4210.15372,N,00841.32249,W,1,11,1.50,441.5,M,51.9,M,,*44
$GPGSA,A,3,22,19,20,32,16,28,27,30,11,04,01,,2.19,1.50,1.59*04
$GPGSV,4,1,14,22,37,055,37,18,04,040,,19,75,078,49,20,06,210,39*75
$GPGSV,4,2,14,07,02,252,35,32,42,182,50,14,15,093,,16,11,170,40*7B
$GPGSV,4,3,14,28,17,321,30,27,47,113,38,30,07,282,39,11,56,287,39*78
$GPGSV,4,4,14,04,57,274,39,01,40,265,49*78
$GPGLL,4210.15372,N,00841.32249,W,113057.00,A,A*7C
$GPZDA,113057.00,04,11,2014,00,00*64
$GPRMC,113058.00,A,4210.15352,N,00841.32275,W,1.137,102.55,041114,,,A*7F
$GPVTG,102.55,T,,M,1.137,N,2.107,K,A*3E
$GPGGA,113058.00,4210.15352,N,00841.32275,W,1,11,1.50,441.6,M,51.9,M,,*45
$GPGSA,A,3,22,19,20,32,16,28,27,30,11,04,01,,2.19,1.50,1.59*04
$GPGSV,4,1,14,22,37,055,37,18,04,040,,19,75,078,49,20,06,210,40*7B
$GPGSV,4,2,14,07,02,252,34,32,42,182,50,14,15,093,,16,11,170,36*7B
$GPGSV,4,3,14,28,17,321,31,27,47,113,39,30,07,282,39,11,56,287,42*74
$GPGSV,4,4,14,04,57,274,37,01,40,265,49*76
$GPGLL,4210.15352,N,00841.32275,W,113058.00,A,A*7E
$GPZDA,113058.00,04,11,2014,00,00*6B
$GPRMC,113059.00,A,4210.15341,N,00841.32287,W,0.095,106.15,041114,,,A*79
$GPVTG,106.15,T,,M,0.095,N,0.176,K,A*32
$GPGGA,113059.00,4210.15341,N,00841.32287,W,1,11,1.50,441.6,M,51.9,M,,*4B
$GPGSA,A,3,22,19,20,32,16,28,27,30,11,04,01,,2.19,1.50,1.59*04
$GPGSV,4,1,14,22,37,055,37,18,04,040,,19,75,078,49,20,06,210,42*79
$GPGSV,4,2,14,07,02,252,37,32,42,182,50,14,15,093,,16,11,170,39*77
$GPGSV,4,3,14,28,17,321,22,27,47,113,39,30,07,282,41,11,56,287,38*74
$GPGSV,4,4,14,04,57,274,35,01,40,265,49*74
$GPGLL,4210.15341,N,00841.32287,W,113059.00,A,A*70
$GPZDA,113059.00,04,11,2014,00,00*6A
$GPRMC,113100.00,A,4210.15338,N,00841.32293,W,0.030,110.11,041114,,,A*73
$GPVTG,110.11,T,,M,0.030,N,0.055,K,A*3E
$GPGGA,113100.00,4210.15338,N,00841.32293,W,1,10,1.50,441.7,M,51.9,M,,*4D
$GPGSA,A,3,22,19,20,32,16,27,30,11,04,01,,,2.19,1.50,1.59*0E
$GPGSV,4,1,14,22,37,055,38,18,04,040,,19,75,078,49,20,06,210,44*70
$GPGSV,4,2,14,07,02,252,36,32,42,182,50,14,15,093,,16,11,170,38*77
$GPGSV,4,3,14,28,17,321,,27,47,113,40,30,07,282,40,11,56,287,39*7A
$GPGSV,4,4,14,04,57,274,40,01,40,265,49*76
$GPGLL,4210.15338,N,00841.32293,W,113100.00,A,A*76
$GPZDA,113100.00,04,11,2014,00,00*67
$GPRMC,113101.00,A,4210.15334,N,00841.32297,W,0.018,,041114,,,A*6E
$GPVTG,,T,,M,0.018,N,0.033,K,A*2A
$GPGGA,113101.00,4210.15334,N,00841.32297,W,1,10,1.50,441.7,M,51.9,M,,*44
$GPGSA,A,3,22,19,20,32,16,27,30,11,04,01,,,2.19,1.50,1.59*0E
$GPGSV,4,1,14,22,37,055,37,18,04,040,,19,75,078,49,20,06,210,43*78
$GPGSV,4,2,14,07,02,252,39,32,42,182,50,14,15,093,,16,11,170,38*78
$GPGSV,4,3,14,28,17,321,,27,47,113,40,30,07,282,41,11,56,287,38*7A
$GPGSV,4,4,14,04,57,274,39,01,40,265,49*78
$GPGLL,4210.15334,N,00841.32297,W,113101.00,A,A*7F
$GPZDA,113101.00,04,11,2014,00,00*66
$GPRMC,113102.00,A,4210.15331,N,00841.32300,W,0.028,113.03,041114,,,A*7A
$GPVTG,113.03,T,,M,0.028,N,0.052,K,A*30
$GPGGA,113102.00,4210.15331,N,00841.32300,W,1,10,1.50,441.7,M,51.9,M,,*4D
$GPGSA,A,3,22,19,20,32,16,27,30,11,04,01,,,2.19,1.50,1.59*0E
$GPGSV,4,1,14,22,37,055,37,18,04,040,,19,75,078,48,20,06,210,42*78
$GPGSV,4,2,14,07,02,252,40,32,42,182,49,14,15,093,,16,11,170,40*71
$GPGSV,4,3,14,28,17,321,,27,47,114,40,30,07,282,41,11,56,287,39*7C
$GPGSV,4,4,14,04,57,274,39,01,40,265,49*78
$GPGLL,4210.15331,N,00841.32300,W,113102.00,A,A*76
$GPZDA,113102.00,04,11,2014,00,00*65
$GPRMC,113103.00,A,4210.15328,N,00841.32303,W,0.006,,041114,,,A*62
$GPVTG,,T,,M,0.006,N,0.012,K,A*26
$GPGGA,113103.00,4210.15328,N,00841.32303,W,1,10,1.50,441.7,M,51.9,M,,*47
$GPGSA,A,3,22,19,20,32,16,27,30,11,04,01,,,2.19,1.50,1.59*0E
$GPGSV,4,1,14,22,37,055,37,18,04,040,,19,75,078,48,20,06,210,43*79
$GPGSV,4,2,14,07,02,252,39,32,42,182,50,14,15,093,,16,11,170,39*79
$GPGSV,4,3,14,28,17,321,,27,47,114,40,30,07,282,40,11,56,287,40*73
$GPGSV,4,4,14,04,57,274,40,01,40,265,49*76
$GPGLL,4210.15328,N,00841.32303,W,113103.00,A,A*7C
$GPZDA,113103.00,04,11,2014,00,00*64
$GPRMC,113104.00,A,4210.15327,N,00841.32305,W,0.017,,041114,,,A*6C
$GPVTG,,T,,M,0.017,N,0.031,K,A*27
$GPGGA,113104.00,4210.15327,N,00841.32305,W,1,10,1.50,441.7,M,51.9,M,,*49
$GPGSA,A,3,22,19,20,32,16,27,30,11,04,01,,,2.19,1.50,1.59*0E
$GPGSV,4,1,14,22,37,055,37,18,04,040,,19,75,078,49,20,06,210,41*7A
$GPGSV,4,2,14,07,02,252,39,32,42,182,50,14,15,093,,16,11,170,39*79
$GPGSV,4,3,14,28,17,321,,27,47,114,40,30,07,282,41,11,56,287,41*73
$GPGSV,4,4,14,04,57,274,39,01,40,265,50*70
$GPGLL,4210.15327,N,00841.32305,W,113104.00,A,A*72
$GPZDA,113104.00,04,11,2014,00,00*63
$GPRMC,113105.00,A,4210.15326,N,00841.32307,W,0.000,,041114,,,A*68
$GPVTG,,T,,M,0.000,N,0.000,K,A*23
$GPGGA,113105.00,4210.15326,N,00841.32307,W,1,10,1.50,441.6,M,51.9,M,,*4A
$GPGSA,A,3,22,19,20,32,16,27,30,11,04,01,,,2.19,1.50,1.59*0E
$GPGSV,4,1,14,22,37,055,36,18,04,040,,19,75,078,49,20,06,210,40*7A
$GPGSV,4,2,14,07,02,252,39,32,42,182,50,14,15,093,,16,11,170,39*79
$GPGSV,4,3,14,28,17,321,,27,47,114,40,30,07,281,41,11,56,287,42*73
$GPGSV,4,4,14,04,57,274,38,01,40,265,50*71
$GPGLL,4210.15326,N,00841.32307,W,113105.00,A,A*70
$GPZDA,113105.00,04,11,2014,00,00*62
$GPRMC,113106.00,A,4210.15324,N,00841.32309,W,0.008,,041114,,,A*6F
$GPVTG,,T,,M,0.008,N,0.015,K,A*2F
$GPGGA,113106.00,4210.15324,N,00841.32309,W,1,10,1.50,441.6,M,51.9,M,,*45
$GPGSA,A,3,22,19,20,32,16,27,30,11,04,01,,,2.19,1.50,1.59*0E
$GPGSV,4,1,14,22,37,055,36,18,04,040,,19,75,078,48,20,06,210,40*7B
$GPGSV,4,2,14,07,02,252,38,32,42,182,50,14,15,093,,16,11,170,39*78
$GPGSV,4,3,14,28,17,321,,27,47,114,40,30,07,281,41,11,56,287,41*70
$GPGSV,4,4,14,04,57,274,38,01,40,265,50*71
$GPGLL,4210.15324,N,00841.32309,W,113106.00,A,A*7F
$GPZDA,113106.00,04,11,2014,00,00*61
$GPRMC,113107.00,A,4210.15323,N,00841.32311,W,0.010,,041114,,,A*69
$GPVTG,,T,,M,0.010,N,0.018,K,A*2B
$GPGGA,113107.00,4210.15323,N,00841.32311,W,1,11,1.50,441.6,M,51.9,M,,*4B
$GPGSA,A,3,22,19,20,32,16,28,27,30,11,04,01,,2.19,1.50,1.59*04
$GPGSV,4,1,14,22,37,055,35,18,04,040,,19,75,078,48,20,06,210,40*78
$GPGSV,4,2,14,07,02,252,38,32,42,182,50,14,15,093,,16,11,170,38*79
$GPGSV,4,3,14,28,17,321,30,27,47,114,40,30,07,281,41,11,56,287,41*73
$GPGSV,4,4,14,04,57,274,37,01,40,265,49*76
$GPGLL,4210.15323,N,00841.32311,W,113107.00,A,A*70
$GPZDA,113107.00,04,11,2014,00,00*60
$GPRMC,113108.00,A,4210.15321,N,00841.32313,W,0.010,,041114,,,A*66
$GPVTG,,T,,M,0.010,N,0.019,K,A*2A
$GPGGA,113108.00,4210.15321,N,00841.32313,W,1,11,1.50,441.6,M,51.9,M,,*44
$GPGSA,A,3,22,19,20,32,16,28,27,30,11,04,01,,2.19,1.50,1.59*04
$GPGSV,4,1,14,22,37,055,35,18,04,040,,19,75,078,48,20,06,210,40*78
$GPGSV,4,2,14,07,02,252,39,32,42,182,50,14,15,093,,16,11,170,38*78
$GPGSV,4,3,14,28,17,321,30,27,47,114,40,30,07,281,42,11,56,287,42*73
$GPGSV,4,4,14,04,57,274,37,01,40,265,49*76
$GPGLL,4210.15321,N,00841.32313,W,113108.00,A,A*7F
$GPZDA,113108.00,04,11,2014,00,00*6F
$GPRMC,113109.00,A,4210.15323,N,00841.32313,W,0.069,108.94,041114,,,A*71
$GPVTG,108.94,T,,M,0.069,N,0.128,K,A*3D
$GPGGA,113109.00,4210.15323,N,00841.32313,W,1,11,1.50,441.5,M,51.9,M,,*44
$GPGSA,A,3,22,19,20,32,16,28,27,30,11,04,01,,2.18,1.50,1.59*05
$GPGSV,4,1,14,22,37,055,35,18,04,040,,19,75,078,48,20,06,210,40*78
$GPGSV,4,2,14,07,02,252,38,32,42,182,50,14,15,093,,16,11,170,39*78
$GPGSV,4,3,14,28,17,321,30,27,47,114,40,30,07,281,42,11,56,287,42*73
$GPGSV,4,4,14,04,57,274,37,01,40,265,49*76
$GPGLL,4210.15323,N,00841.32313,W,113109.00,A,A*7C
$GPZDA,113109.00,04,11,2014,00,00*6E
$GPRMC,113110.00,A,4210.15322,N,00841.32317,W,0.031,106.94,041114,,,A*7F
$GPVTG,106.94,T,,M,0.031,N,0.057,K,A*37
$GPGGA,113110.00,4210.15322,N,00841.32317,W,1,11,1.50,441.5,M,51.9,M,,*49
$GPGSA,A,3,22,19,20,32,16,28,27,30,11,04,01,,2.19,1.50,1.59*04
$GPGSV,4,1,14,22,37,055,34,18,04,040,,19,75,078,48,20,06,210,40*79
$GPGSV,4,2,14,07,02,252,38,32,42,182,50,14,15,093,,16,11,170,39*78
$GPGSV,4,3,14,28,17,321,30,27,47,114,40,30,07,281,42,11,56,287,42*73
$GPGSV,4,4,14,04,57,274,37,01,40,265,49*76
$GPGLL,4210.15322,N,00841.32317,W,113110.00,A,A*71
$GPZDA,113110.00,04,11,2014,00,00*66
$GPRMC,113111.00,A,4210.15320,N,00841.32319,W,0.024,105.16,041114,,,A*7F
$GPVTG,105.16,T,,M,0.024,N,0.044,K,A*38
$GPGGA,113111.00,4210.15320,N,00841.32319,W,1,11,1.50,441.5,M,51.9,M,,*44
$GPGSA,A,3,22,19,20,32,16,28,27,30,11,04,01,,2.19,1.50,1.59*04
$GPGSV,4,1,14,22,37,055,34,18,04,040,,19,75,078,48,20,06,210,40*79
$GPGSV,4,2,14,07,02,252,38,32,42,182,50,14,15,093,,16,11,170,39*78
$GPGSV,4,3,14,28,17,321,31,27,47,114,41,30,07,281,43,11,56,287,42*72
$GPGSV,4,4,14,04,57,274,36,01,40,265,50*7F
$GPGLL,4210.15320,N,00841.32319,W,113111.00,A,A*7C
$GPZDA,113111.00,04,11,2014,00,00*67
$GPRMC,113112.00,A,4210.15318,N,00841.32322,W,0.016,,041114,,,A*63
$GPVTG,,T,,M,0.016,N,0.031,K,A*26
$GPGGA,113112.00,4210.15318,N,00841.32322,W,1,11,1.50,441.5,M,51.9,M,,*44
$GPGSA,A,3,22,19,20,32,16,28,27,30,11,04,01,,2.18,1.50,1.59*05
$GPGSV,4,1,14,22,37,055,33,18,04,040,,19,75,078,48,20,06,210,40*7E
$GPGSV,4,2,14,07,02,252,39,32,42,182,50,14,15,093,,16,11,170,39*79
$GPGSV,4,3,14,28,17,321,31,27,47,114,41,30,07,281,43,11,56,287,42*72
$GPGSV,4,4,14,04,57,274,36,01,40,265,50*7F
$GPGLL,4210.15318,N,00841.32322,W,113112.00,A,A*7C
$GPZDA,113112.00,04,11,2014,00,00*64
$GPRMC,113113.00,A,4210.15316,N,00841.32322,W,0.030,103.57,041114,,,A*76
$GPVTG,103.57,T,,M,0.030,N,0.055,K,A*3E
$GPGGA,113113.00,4210.15316,N,00841.32322,W,1,11,1.50,441.5,M,51.9,M,,*4B
$GPGSA,A,3,22,19,20,32,16,28,27,30,11,04,01,,2.19,1.50,1.59*04
$GPGSV,4,1,14,22,37,055,33,18,04,040,,19,75,078,48,20,06,210,40*7E
$GPGSV,4,2,14,07,02,252,39,32,42,182,50,14,15,093,,16,11,170,39*79
$GPGSV,4,3,14,28,17,321,31,27,47,114,41,30,07,281,44,11,56,287,42*75
$GPGSV,4,4,14,04,57,274,35,01,40,265,50*7C
$GPGLL,4210.15316,N,00841.32322,W,113113.00,A,A*73
$GPZDA,113113.00,04,11,2014,00,00*65
$GPRMC,113114.00,A,4210.15310,N,00841.32329,W,0.020,101.66,041114,,,A*7D
$GPVTG,101.66,T,,M,0.020,N,0.038,K,A*34
$GPGGA,113114.00,4210.15310,N,00841.32329,W,1,11,1.00,441.5,M,51.9,M,,*44
$GPGSA,A,3,22,19,20,32,16,28,27,30,11,04,01,,1.62,1.00,1.28*08
$GPGSV,4,1,14,22,37,055,32,18,04,040,,19,75,078,48,20,06,210,40*7F
$GPGSV,4,2,14,07,02,252,39,32,42,182,50,14,15,093,,16,11,170,39*79
$GPGSV,4,3,14,28,17,321,32,27,47,114,41,30,07,281,44,11,56,287,42*76
$GPGSV,4,4,14,04,57,274,35,01,40,265,50*7C
$GPGLL,4210.15310,N,00841.32329,W,113114.00,A,A*79
$GPZDA,113114.00,04,11,2014,00,00*62
$GPRMC,113115.00,A,4210.15304,N,00841.32337,W,0.018,,041114,,,A*63
$GPVTG,,T,,M,0.018,N,0.034,K,A*2D
$GPGGA,113115.00,4210.15304,N,00841.32337,W,1,11,1.00,441.5,M,51.9,M,,*4F
$GPGSA,A,3,22,19,20,32,16,28,27,30,11,04,01,,1.62,1.00,1.28*08
$GPGSV,4,1,14,22,37,055,32,18,04,040,,19,75,078,48,20,06,210,40*7F
$GPGSV,4,2,14,07,02,252,38,32,42,182,50,14,15,093,,16,11,170,39*78
$GPGSV,4,3,14,28,17,321,33,27,47,114,41,30,07,281,44,11,56,287,42*77
$GPGSV,4,4,14,04,57,274,35,01,40,265,50*7C
$GPGLL,4210.15304,N,00841.32337,W,113115.00,A,A*72
$GPZDA,113115.00,04,11,2014,00,00*63
$GPRMC,113116.00,A,4210.15294,N,00841.32343,W,0.012,,041114,,,A*61
$GPVTG,,T,,M,0.012,N,0.021,K,A*23
$GPGGA,113116.00,4210.15294,N,00841.32343,W,1,11,0.88,441.5,M,51.9,M,,*46
$GPGSA,A,3,22,19,20,32,16,28,27,30,11,04,01,,1.44,0.88,1.15*03
$GPGSV,4,1,14,22,37,055,32,18,04,040,,19,75,078,48,20,06,210,40*7F
$GPGSV,4,2,14,07,02,252,38,32,42,182,50,14,15,093,,16,11,170,40*76
$GPGSV,4,3,14,28,17,321,34,27,47,114,41,30,07,281,45,11,56,287,43*70
$GPGSV,4,4,14,04,57,274,34,01,40,265,50*7D
$GPGLL,4210.15294,N,00841.32343,W,113116.00,A,A*7A
$GPZDA,113116.00,04,11,2014,00,00*60
$GPRMC,113117.00,A,4210.15281,N,00841.32351,W,0.016,,041114,,,A*63
$GPVTG,,T,,M,0.016,N,0.029,K,A*2F
$GPGGA,113117.00,4210.15281,N,00841.32351,W,1,11,0.88,441.6,M,51.9,M,,*43
$GPGSA,A,3,22,19,20,32,16,28,27,30,11,04,01,,1.44,0.88,1.15*03
$GPGSV,4,1,14,22,37,055,32,18,04,040,,19,75,078,48,20,06,210,40*7F
$GPGSV,4,2,14,07,02,252,39,32,42,182,50,14,15,093,,16,11,170,38*78
$GPGSV,4,3,14,28,17,321,35,27,47,114,41,30,07,281,45,11,56,287,43*71
$GPGSV,4,4,14,04,57,274,34,01,40,265,50*7D
$GPGLL,4210.15281,N,00841.32351,W,113117.00,A,A*7C
$GPZDA,113117.00,04,11,2014,00,00*61
$GPRMC,113118.00,A,4210.15273,N,00841.32356,W,0.014,,041114,,,A*64
$GPVTG,,T,,M,0.014,N,0.027,K,A*23
$GPGGA,113118.00,4210.15273,N,00841.32356,W,1,11,0.88,441.6,M,51.9,M,,*46
$GPGSA,A,3,22,19,20,32,16,28,27,30,11,04,01,,1.44,0.88,1.15*03
$GPGSV,4,1,14,22,37,055,32,18,04,040,,19,75,078,48,20,06,210,40*7F
$GPGSV,4,2,14,07,02,252,38,32,42,182,51,14,15,093,,16,11,170,39*79
$GPGSV,4,3,14,28,17,321,35,27,47,114,41,30,07,281,45,11,56,287,43*71
$GPGSV,4,4,14,04,57,274,34,01,40,265,50*7D
$GPGLL,4210.15273,N,00841.32356,W,113118.00,A,A*79
$GPZDA,113118.00,04,11,2014,00,00*6E
$GPRMC,113119.00,A,4210.15265,N,00841.32360,W,0.010,,041114,,,A*63
$GPVTG,,T,,M,0.010,N,0.018,K,A*2B
$GPGGA,113119.00,4210.15265,N,00841.32360,W,1,11,0.88,441.7,M,51.9,M,,*44
$GPGSA,A,3,22,19,20,32,16,28,27,30,11,04,01,,1.44,0.88,1.15*03
$GPGSV,4,1,14,22,37,055,31,18,04,040,,19,75,078,48,20,06,210,40*7C
$GPGSV,4,2,14,07,02,252,39,32,42,182,51,14,15,093,,16,11,170,39*78
$GPGSV,4,3,14,28,17,321,35,27,47,114,41,30,07,281,45,11,56,287,43*71
$GPGSV,4,4,14,04,57,274,33,01,40,265,50*7A
$GPGLL,4210.15265,N,00841.32360,W,113119.00,A,A*7A
$GPZDA,113119.00,04,11,2014,00,00*6F
$GPRMC,113120.00,A,4210.15256,N,00841.32364,W,0.015,,041114,,,A*68
$GPVTG,,T,,M,0.015,N,0.028,K,A*2D
$GPGGA,113120.00,4210.15256,N,00841.32364,W,1,11,0.88,441.7,M,51.9,M,,*4A
$GPGSA,A,3,22,19,20,32,16,28,27,30,11,04,01,,1.44,0.88,1.15*03
$GPGSV,4,1,14,22,37,055,31,18,04,040,,19,75,078,48,20,06,210,41*7D
$GPGSV,4,2,14,07,02,252,39,32,42,182,51,14,15,093,,16,11,170,39*78
$GPGSV,4,3,14,28,17,321,36,27,47,114,42,30,07,281,45,11,56,287,43*71
$GPGSV,4,4,14,04,57,274,33,01,40,265,50*7A
$GPGLL,4210.15256,N,00841.32364,W,113120.00,A,A*74
$GPZDA,113120.00,04,11,2014,00,00*65
$GPRMC,113121.00,A,4210.15248,N,00841.32368,W,0.010,,041114,,,A*6F
$GPVTG,,T,,M,0.010,N,0.018,K,A*2B
$GPGGA,113121.00,4210.15248,N,00841.32368,W,1,11,0.88,441.7,M,51.9,M,,*48
$GPGSA,A,3,22,19,20,32,16,28,27,30,11,04,01,,1.44,0.88,1.15*03
$GPGSV,4,1,14,22,37,055,31,18,04,040,,19,75,078,48,20,06,210,40*7C
$GPGSV,4,2,14,07,02,252,38,32,42,182,51,14,15,093,,16,11,170,39*79
$GPGSV,4,3,14,28,17,321,35,27,47,114,42,30,07,281,45,11,56,287,43*72
$GPGSV,4,4,14,04,57,274,32,01,40,265,50*7B
$GPGLL,4210.15248,N,00841.32368,W,113121.00,A,A*76
$GPZDA,113121.00,04,11,2014,00,00*64
$GPRMC,113122.00,A,4210.15238,N,00841.32372,W,0.011,,041114,,,A*61
$GPVTG,,T,,M,0.011,N,0.020,K,A*21
$GPGGA,113122.00,4210.15238,N,00841.32372,W,1,11,0.88,441.7,M,51.9,M,,*47
$GPGSA,A,3,22,19,20,32,16,28,27,30,11,04,01,,1.44,0.88,1.15*03
$GPGSV,4,1,14,22,37,055,32,18,04,040,,19,75,078,48,20,06,210,40*7F
$GPGSV,4,2,14,07,02,252,38,32,42,182,51,14,15,093,,16,11,170,39*79
$GPGSV,4,3,14,28,17,321,36,27,47,114,42,30,07,281,45,11,56,287,43*71
$GPGSV,4,4,14,04,57,274,31,01,40,265,50*78
$GPGLL,4210.15238,N,00841.32372,W,113122.00,A,A*79
$GPZDA,113122.00,04,11,2014,00,00*67
$GPRMC,113123.00,A,4210.15228,N,00841.32377,W,0.010,,041114,,,A*65
$GPVTG,,T,,M,0.010,N,0.019,K,A*2A
$GPGGA,113123.00,4210.15228,N,00841.32377,W,1,11,0.88,441.8,M,51.9,M,,*4D
$GPGSA,A,3,22,19,20,32,16,28,27,30,11,04,01,,1.44,0.88,1.15*03
$GPGSV,4,1,14,22,37,055,32,18,04,040,,19,75,078,48,20,06,210,40*7F
$GPGSV,4,2,14,07,02,252,38,32,42,182,51,14,15,093,,16,11,170,39*79
$GPGSV,4,3,14,28,17,321,36,27,47,114,42,30,07,281,45,11,56,287,43*71
$GPGSV,4,4,14,04,57,274,31,01,40,265,50*78
$GPGLL,4210.15228,N,00841.32377,W,113123.00,A,A*7C
$GPZDA,113123.00,04,11,2014,00,00*66
$GPRMC,113124.00,A,4210.15219,N,00841.32381,W,0.014,,041114,,,A*6D
$GPVTG,,T,,M,0.014,N,0.025,K,A*21
$GPGGA,113124.00,4210.15219,N,00841.32381,W,1,11,0.88,441.8,M,51.9,M,,*41
$GPGSA,A,3,22,19,20,32,16,28,27,30,11,04,01,,1.44,0.88,1.15*03
$GPGSV,4,1,14,22,37,055,32,18,04,040,,19,75,078,48,20,06,210,40*7F
$GPGSV,4,2,14,07,02,252,37,32,42,182,51,14,15,093,,16,11,170,39*76
$GPGSV,4,3,14,28,17,321,36,27,47,114,42,30,07,281,45,11,56,287,43*71
$GPGSV,4,4,14,04,57,274,30,01,40,265,50*79
$GPGLL,4210.15219,N,00841.32381,W,113124.00,A,A*70
$GPZDA,113124.00,04,11,2014,00,00*61
$GPRMC,113125.00,A,4210.15210,N,00841.32386,W,0.007,,041114,,,A*60
$GPVTG,,T,,M,0.007,N,0.013,K,A*26
$GPGGA,113125.00,4210.15210,N,00841.32386,W,1,11,0.88,441.9,M,51.9,M,,*4F
$GPGSA,A,3,22,19,20,32,16,28,27,30,11,04,01,,1.44,0.88,1.15*03
$GPGSV,4,1,14,22,37,055,32,18,04,040,,19,75,078,48,20,06,210,40*7F
$GPGSV,4,2,14,07,02,252,37,32,42,182,51,14,15,093,,16,11,170,39*76
$GPGSV,4,3,14,28,17,321,36,27,47,114,42,30,07,281,45,11,56,287,43*71
$GPGSV,4,4,14,04,57,274,31,01,40,265,50*78
$GPGLL,4210.15210,N,00841.32386,W,113125.00,A,A*7F
$GPZDA,113125.00,04,11,2014,00,00*60
$GPRMC,113126.00,A,4210.15200,N,00841.32391,W,0.007,,041114,,,A*64
$GPVTG,,T,,M,0.007,N,0.013,K,A*26
$GPGGA,113126.00,4210.15200,N,00841.32391,W,1,11,0.88,441.9,M,51.9,M,,*4B
$GPGSA,A,3,22,19,20,32,16,28,27,30,11,04,01,,1.44,0.88,1.15*03
$GPGSV,4,1,14,22,37,055,33,18,04,040,,19,75,078,48,20,06,210,40*7E
$GPGSV,4,2,14,07,02,252,36,32,42,182,51,14,15,093,,16,11,170,39*77
$GPGSV,4,3,14,28,17,321,36,27,47,114,42,30,07,281,45,11,56,287,43*71
$GPGSV,4,4,14,04,57,274,30,01,40,265,50*79
$GPGLL,4210.15200,N,00841.32391,W,113126.00,A,A*7B
$GPZDA,113126.00,04,11,2014,00,00*63
$GPRMC,113127.00,A,4210.15190,N,00841.32397,W,0.007,,041114,,,A*69
$GPVTG,,T,,M,0.007,N,0.013,K,A*26
$GPGGA,113127.00,4210.15190,N,00841.32397,W,1,11,0.91,441.9,M,51.9,M,,*4E
$GPGSA,A,3,22,19,20,32,16,28,27,30,11,04,01,,1.55,0.91,1.26*0B
$GPGSV,4,1,14,22,37,055,33,18,04,040,,19,75,078,48,20,06,210,41*7F
$GPGSV,4,2,14,07,02,252,36,32,42,182,51,14,15,093,,16,11,170,40*79
$GPGSV,4,3,14,28,17,321,36,27,47,114,42,30,07,281,45,11,56,287,43*71
$GPGSV,4,4,14,04,57,274,29,01,40,266,50*72
$GPGLL,4210.15190,N,00841.32397,W,113127.00,A,A*76
$GPZDA,113127.00,04,11,2014,00,00*62
$GPRMC,113128.00,A,4210.15185,N,00841.32395,W,0.014,,041114,,,A*62
$GPVTG,,T,,M,0.014,N,0.026,K,A*22
$GPGGA,113128.00,4210.15185,N,00841.32395,W,1,11,1.19,441.9,M,51.9,M,,*46
$GPGSA,A,3,22,19,20,32,16,28,27,30,11,04,01,,1.81,1.19,1.37*03
$GPGSV,4,1,14,22,37,055,34,18,04,040,,19,75,078,48,20,06,210,41*78
$GPGSV,4,2,14,07,02,252,36,32,42,182,51,14,15,093,,16,11,170,39*77
$GPGSV,4,3,14,28,17,321,36,27,47,114,42,30,07,281,44,11,56,287,43*70
$GPGSV,4,4,14,04,57,274,28,01,40,266,50*73
$GPGLL,4210.15185,N,00841.32395,W,113128.00,A,A*7F
$GPZDA,113128.00,04,11,2014,00,00*6D
$GPRMC,113129.00,A,4210.15177,N,00841.32394,W,0.010,,041114,,,A*6B
$GPVTG,,T,,M,0.010,N,0.019,K,A*2A
$GPGGA,113129.00,4210.15177,N,00841.32394,W,1,11,1.19,442.0,M,51.9,M,,*41
$GPGSA,A,3,22,19,20,32,16,28,27,30,11,04,01,,1.81,1.19,1.37*03
$GPGSV,4,1,14,22,37,055,34,18,04,040,,19,75,078,48,20,06,210,41*78
$GPGSV,4,2,14,07,02,252,35,32,42,182,51,14,15,093,,16,11,170,39*74
$GPGSV,4,3,14,28,17,321,37,27,47,114,42,30,07,281,44,11,56,287,43*71
$GPGSV,4,4,14,04,57,274,28,01,40,266,50*73
$GPGLL,4210.15177,N,00841.32394,W,113129.00,A,A*72
$GPZDA,113129.00,04,11,2014,00,00*6C
$GPRMC,113130.00,A,4210.15172,N,00841.32393,W,0.012,,041114,,,A*63
$GPVTG,,T,,M,0.012,N,0.022,K,A*20
$GPGGA,113130.00,4210.15172,N,00841.32393,W,1,11,1.19,442.0,M,51.9,M,,*4B
$GPGSA,A,3,22,19,20,32,16,28,27,30,11,04,01,,1.81,1.19,1.37*03
$GPGSV,4,1,14,22,37,055,34,18,04,040,,19,75,078,48,20,06,210,41*78
$GPGSV,4,2,14,07,02,252,35,32,42,182,51,14,15,093,,16,11,170,39*74
$GPGSV,4,3,14,28,17,321,36,27,47,114,42,30,07,281,44,11,56,287,43*70
$GPGSV,4,4,14,04,58,275,27,01,40,266,50*72
$GPGLL,4210.15172,N,00841.32393,W,113130.00,A,A*78
$GPZDA,113130.00,04,11,2014,00,00*64
$GPRMC,113131.00,A,4210.15167,N,00841.32391,W,0.006,,041114,,,A*61
$GPVTG,,T,,M,0.006,N,0.011,K,A*25
$GPGGA,113131.00,4210.15167,N,00841.32391,W,1,11,1.19,442.0,M,51.9,M,,*4C
$GPGSA,A,3,22,19,20,32,16,28,27,30,11,04,01,,1.81,1.19,1.37*03
$GPGSV,4,1,14,22,37,055,34,18,04,040,,19,75,078,48,20,06,210,41*78
$GPGSV,4,2,14,07,02,252,35,32,42,182,51,14,15,093,,16,11,170,40*7A
$GPGSV,4,3,14,28,17,321,36,27,47,114,42,30,07,281,43,11,56,287,43*77
$GPGSV,4,4,14,04,58,275,25,01,40,266,50*70
$GPGLL,4210.15167,N,00841.32391,W,113131.00,A,A*7F
$GPZDA,113131.00,04,11,2014,00,00*65
$GPRMC,113132.00,A,4210.15162,N,00841.32390,W,0.013,,041114,,,A*62
$GPVTG,,T,,M,0.013,N,0.025,K,A*26
$GPGGA,113132.00,4210.15162,N,00841.32390,W,1,11,1.19,442.0,M,51.9,M,,*4B
$GPGSA,A,3,22,19,20,32,16,28,27,30,11,04,01,,1.81,1.19,1.37*03
$GPGSV,4,1,14,22,37,055,34,18,04,040,,19,75,078,48,20,06,210,41*78
$GPGSV,4,2,14,07,02,252,34,32,42,182,51,14,15,093,,16,11,170,39*75
$GPGSV,4,3,14,28,17,321,36,27,47,114,42,30,07,281,43,11,56,287,43*77
$GPGSV,4,4,14,04,58,275,26,01,40,266,50*73
$GPGLL,4210.15162,N,00841.32390,W,113132.00,A,A*78
$GPZDA,113132.00,04,11,2014,00,00*66
$GPRMC,113133.00,A,4210.15157,N,00841.32389,W,0.007,,041114,,,A*68
$GPVTG,,T,,M,0.007,N,0.014,K,A*21
$GPGGA,113133.00,4210.15157,N,00841.32389,W,1,11,1.19,442.0,M,51.9,M,,*44
$GPGSA,A,3,22,19,20,32,16,28,27,30,11,04,01,,1.81,1.19,1.37*03
$GPGSV,4,1,14,22,37,055,34,18,04,040,,19,75,078,48,20,06,210,41*78
$GPGSV,4,2,14,07,02,252,34,32,42,182,51,14,15,093,,16,11,170,40*7B
$GPGSV,4,3,14,28,17,321,36,27,47,114,42,30,07,281,43,11,56,287,43*77
$GPGSV,4,4,14,04,58,275,26,01,40,266,50*73
$GPGLL,4210.15157,N,00841.32389,W,113133.00,A,A*77
$GPZDA,113133.00,04,11,2014,00,00*67
$GPRMC,113134.00,A,4210.15152,N,00841.32387,W,0.007,,041114,,,A*64
$GPVTG,,T,,M,0.007,N,0.013,K,A*26
$GPGGA,113134.00,4210.15152,N,00841.32387,W,1,11,1.19,442.0,M,51.9,M,,*48
$GPGSA,A,3,22,19,20,32,16,28,27,30,11,04,01,,1.81,1.19,1.37*03
$GPGSV,4,1,14,22,37,055,34,18,04,040,,19,75,078,48,20,06,210,41*78
$GPGSV,4,2,14,07,02,252,35,32,42,182,51,14,15,093,,16,11,170,39*74
$GPGSV,4,3,14,28,17,321,36,27,47,114,42,30,07,281,42,11,56,287,43*76
$GPGSV,4,4,14,04,58,275,26,01,40,266,50*73
$GPGLL,4210.15152,N,00841.32387,W,113134.00,A,A*7B
$GPZDA,113134.00,04,11,2014,00,00*60
$GPRMC,113135.00,A,4210.15147,N,00841.32386,W,0.012,,041114,,,A*64
$GPVTG,,T,,M,0.012,N,0.022,K,A*20
$GPGGA,113135.00,4210.15147,N,00841.32386,W,1,11,1.19,442.0,M,51.9,M,,*4C
$GPGSA,A,3,22,19,20,32,16,28,27,30,11,04,01,,1.81,1.19,1.37*03
$GPGSV,4,1,14,22,37,055,34,18,04,040,,19,75,078,48,20,06,210,41*78
$GPGSV,4,2,14,07,02,252,36,32,42,182,51,14,15,093,,16,11,170,40*79
$GPGSV,4,3,14,28,17,321,36,27,47,114,42,30,07,281,42,11,56,287,43*76
$GPGSV,4,4,14,04,58,275,25,01,40,266,50*70
$GPGLL,4210.15147,N,00841.32386,W,113135.00,A,A*7F
$GPZDA,113135.00,04,11,2014,00,00*61
$GPRMC,113136.00,A,4210.15142,N,00841.32386,W,0.009,,041114,,,A*68
$GPVTG,,T,,M,0.009,N,0.016,K,A*2D
$GPGGA,113136.00,4210.15142,N,00841.32386,W,1,11,1.19,442.0,M,51.9,M,,*4A
$GPGSA,A,3,22,19,20,32,16,28,27,30,11,04,01,,1.81,1.19,1.37*03
$GPGSV,4,1,14,22,37,055,34,18,04,040,,19,75,078,48,20,06,210,41*78
$GPGSV,4,2,14,07,02,252,36,32,42,182,51,14,15,093,,16,11,170,40*79
$GPGSV,4,3,14,28,17,321,36,27,47,114,42,30,07,281,41,11,56,287,43*75
$GPGSV,4,4,14,04,58,275,25,01,40,266,50*70
$GPGLL,4210.15142,N,00841.32386,W,113136.00,A,A*79
$GPZDA,113136.00,04,11,2014,00,00*62
$GPRMC,113137.00,A,4210.15136,N,00841.32385,W,0.009,,041114,,,A*69
$GPVTG,,T,,M,0.009,N,0.017,K,A*2C
$GPGGA,113137.00,4210.15136,N,00841.32385,W,1,11,1.19,442.0,M,51.9,M,,*4B
$GPGSA,A,3,22,19,20,32,16,28,27,30,11,04,01,,1.81,1.19,1.37*03
$GPGSV,4,1,14,22,37,055,34,18,04,040,,19,75,078,48,20,06,210,41*78
$GPGSV,4,2,14,07,02,252,36,32,42,182,51,14,15,093,,16,11,170,40*79
$GPGSV,4,3,14,28,17,321,36,27,47,114,42,30,07,281,41,11,56,287,44*72
$GPGSV,4,4,14,04,58,275,25,01,40,266,50*70
$GPGLL,4210.15136,N,00841.32385,W,113137.00,A,A*78
$GPZDA,113137.00,04,11,2014,00,00*63
$GPRMC,113138.00,A,4210.15130,N,00841.32384,W,0.008,,041114,,,A*60
$GPVTG,,T,,M,0.008,N,0.015,K,A*2F
$GPGGA,113138.00,4210.15130,N,00841.32384,W,1,11,1.19,442.0,M,51.9,M,,*43
$GPGSA,A,3,22,19,20,32,16,28,27,30,11,04,01,,1.81,1.19,1.37*03
$GPGSV,4,1,14,22,37,055,34,18,04,040,,19,75,078,48,20,06,210,41*78
$GPGSV,4,2,14,07,02,252,36,32,42,182,51,14,15,093,,16,11,170,40*79
$GPGSV,4,3,14,28,17,321,36,27,47,114,42,30,07,281,41,11,56,287,44*72
$GPGSV,4,4,14,04,58,275,26,01,40,266,50*73
$GPGLL,4210.15130,N,00841.32384,W,113138.00,A,A*70
$GPZDA,113138.00,04,11,2014,00,00*6C
$GPRMC,113139.00,A,4210.15125,N,00841.32384,W,0.013,,041114,,,A*6F
$GPVTG,,T,,M,0.013,N,0.025,K,A*26
$GPGGA,113139.00,4210.15125,N,00841.32384,W,1,11,1.19,442.0,M,51.9,M,,*46
$GPGSA,A,3,22,19,20,32,16,28,27,30,11,04,01,,1.81,1.19,1.37*03
$GPGSV,4,1,14,22,37,055,34,18,04,040,,19,75,078,48,20,06,210,41*78
$GPGSV,4,2,14,07,02,252,37,32,42,182,51,14,15,093,,16,11,170,40*78
$GPGSV,4,3,14,28,17,321,36,27,47,114,42,30,07,281,40,11,56,287,44*73
$GPGSV,4,4,14,04,58,275,26,01,40,266,50*73
$GPGLL,4210.15125,N,00841.32384,W,113139.00,A,A*75
$GPZDA,113139.00,04,11,2014,00,00*6D
$GPRMC,113140.00,A,4210.15122,N,00841.32385,W,0.008,,041114,,,A*6D
$GPVTG,,T,,M,0.008,N,0.014,K,A*2E
$GPGGA,113140.00,4210.15122,N,00841.32385,W,1,11,1.19,441.9,M,51.9,M,,*44
$GPGSA,A,3,22,19,20,32,16,28,27,30,11,04,01,,1.81,1.19,1.37*03
$GPGSV,4,1,14,22,37,055,34,18,04,040,,19,75,078,48,20,06,210,41*78
$GPGSV,4,2,14,07,02,252,37,32,42,182,51,14,15,093,,16,11,170,40*78
$GPGSV,4,3,14,28,17,321,35,27,47,114,42,30,07,281,40,11,56,287,44*70
$GPGSV,4,4,14,04,58,275,25,01,40,266,50*70
$GPGLL,4210.15122,N,00841.32385,W,113140.00,A,A*7D
$GPZDA,113140.00,04,11,2014,00,00*63
$GPRMC,113141.00,A,4210.15115,N,00841.32390,W,0.010,,041114,,,A*65
$GPVTG,,T,,M,0.010,N,0.019,K,A*2A
$GPGGA,113141.00,4210.15115,N,00841.32390,W,1,11,0.91,442.0,M,51.9,M,,*4E
$GPGSA,A,3,22,19,20,32,16,28,27,30,11,04,01,,1.55,0.91,1.26*0B
$GPGSV,4,1,14,22,37,055,33,18,04,040,,19,75,078,48,20,06,210,41*7F
$GPGSV,4,2,14,07,02,252,38,32,42,182,51,14,15,093,,16,11,170,40*77
$GPGSV,4,3,14,28,17,321,35,27,47,114,42,30,07,281,39,11,56,287,44*7E
$GPGSV,4,4,14,04,58,275,25,01,40,266,50*70
$GPGLL,4210.15115,N,00841.32390,W,113141.00,A,A*7C
$GPZDA,113141.00,04,11,2014,00,00*62
$GPRMC,113142.00,A,4210.15113,N,00841.32391,W,0.012,,041114,,,A*63
$GPVTG,,T,,M,0.012,N,0.023,K,A*21
$GPGGA,113142.00,4210.15113,N,00841.32391,W,1,11,1.19,441.9,M,51.9,M,,*41
$GPGSA,A,3,22,19,20,32,16,28,27,30,11,04,01,,1.81,1.19,1.37*03
$GPGSV,4,1,14,22,37,055,34,18,04,040,,19,75,078,48,20,06,210,41*78
$GPGSV,4,2,14,07,02,252,38,32,42,182,51,14,15,093,,16,11,170,40*77
$GPGSV,4,3,14,28,17,321,34,27,47,114,42,30,07,281,39,11,56,287,45*7E
$GPGSV,4,4,14,04,58,275,25,01,40,266,50*70
$GPGLL,4210.15113,N,00841.32391,W,113142.00,A,A*78
$GPZDA,113142.00,04,11,2014,00,00*61
$GPRMC,113143.00,A,4210.15108,N,00841.32396,W,0.004,,041114,,,A*68
$GPVTG,,T,,M,0.004,N,0.008,K,A*2F
$GPGGA,113143.00,4210.15108,N,00841.32396,W,1,11,0.91,441.9,M,51.9,M,,*4C
$GPGSA,A,3,22,19,20,32,16,28,27,30,11,04,01,,1.55,0.91,1.26*0B
$GPGSV,4,1,14,22,37,055,33,18,04,040,,19,75,078,48,20,06,210,41*7F
$GPGSV,4,2,14,07,02,252,38,32,42,182,51,14,15,093,,16,11,170,40*77
$GPGSV,4,3,14,28,17,321,34,27,47,114,42,30,07,281,39,11,56,287,45*7E
$GPGSV,4,4,14,04,58,275,25,01,40,266,50*70
$GPGLL,4210.15108,N,00841.32396,W,113143.00,A,A*74
$GPZDA,113143.00,04,11,2014,00,00*60
$GPRMC,113144.00,A,4210.15102,N,00841.32402,W,0.013,,041114,,,A*69
$GPVTG,,T,,M,0.013,N,0.024,K,A*27
$GPGGA,113144.00,4210.15102,N,00841.32402,W,1,11,0.91,441.9,M,51.9,M,,*4B
$GPGSA,A,3,22,19,20,32,16,28,27,30,11,04,01,,1.55,0.91,1.26*0B
$GPGSV,4,1,14,22,37,055,33,18,04,040,,19,75,078,48,20,06,210,41*7F
$GPGSV,4,2,14,07,02,252,38,32,42,182,51,14,15,093,,16,11,170,40*77
$GPGSV,4,3,14,28,17,321,34,27,47,114,42,30,07,281,38,11,56,287,45*7F
$GPGSV,4,4,14,04,58,275,25,01,40,266,50*70
$GPGLL,4210.15102,N,00841.32402,W,113144.00,A,A*73
$GPZDA,113144.00,04,11,2014,00,00*67
$GPRMC,113145.00,A,4210.15097,N,00841.32408,W,0.009,,041114,,,A*64
$GPVTG,,T,,M,0.009,N,0.016,K,A*2D
$GPGGA,113145.00,4210.15097,N,00841.32408,W,1,11,0.91,441.9,M,51.9,M,,*4D
$GPGSA,A,3,22,19,20,32,16,28,27,30,11,04,01,,1.55,0.91,1.26*0B
$GPGSV,4,1,14,22,37,055,33,18,04,040,,19,75,079,49,20,06,210,41*7F
$GPGSV,4,2,14,07,02,252,38,32,42,182,51,14,15,093,,16,11,170,40*77
$GPGSV,4,3,14,28,17,321,34,27,47,114,42,30,07,281,38,11,56,287,45*7F
$GPGSV,4,4,14,04,58,275,25,01,40,266,50*70
$GPGLL,4210.15097,N,00841.32408,W,113145.00,A,A*75
$GPZDA,113145.00,04,11,2014,00,00*66
$GPRMC,113146.00,A,4210.15093,N,00841.32415,W,0.012,,041114,,,A*65
$GPVTG,,T,,M,0.012,N,0.022,K,A*20
$GPGGA,113146.00,4210.15093,N,00841.32415,W,1,11,0.91,441.9,M,51.9,M,,*46
$GPGSA,A,3,22,19,20,32,16,28,27,30,11,04,01,,1.55,0.91,1.26*0B
$GPGSV,4,1,14,22,37,055,33,18,04,040,,19,75,079,49,20,07,210,42*7D
$GPGSV,4,2,14,07,02,252,38,32,42,182,51,14,15,093,,16,11,170,40*77
$GPGSV,4,3,14,28,17,321,33,27,47,114,42,30,07,281,38,11,56,287,45*78
$GPGSV,4,4,14,04,58,275,25,01,40,266,50*70
$GPGLL,4210.15093,N,00841.32415,W,113146.00,A,A*7E
$GPZDA,113146.00,04,11,2014,00,00*65
$GPRMC,113147.00,A,4210.15088,N,00841.32421,W,0.013,,041114,,,A*68
$GPVTG,,T,,M,0.013,N,0.023,K,A*20
$GPGGA,113147.00,4210.15088,N,00841.32421,W,1,11,0.91,441.9,M,51.9,M,,*4A
$GPGSA,A,3,22,19,20,32,16,28,27,30,11,04,01,,1.55,0.91,1.26*0B
$GPGSV,4,1,14,22,37,055,33,18,04,040,,19,75,079,49,20,07,210,42*7D
$GPGSV,4,2,14,07,02,252,38,32,42,182,51,14,15,093,,16,11,170,41*76
$GPGSV,4,3,14,28,17,321,33,27,47,114,42,30,07,281,38,11,56,287,46*7B
$GPGSV,4,4,14,04,58,275,25,01,40,266,50*70
$GPGLL,4210.15088,N,00841.32421,W,113147.00,A,A*72
$GPZDA,113147.00,04,11,2014,00,00*64
$GPRMC,113148.00,A,4210.15084,N,00841.32427,W,0.009,,041114,,,A*66
$GPVTG,,T,,M,0.009,N,0.017,K,A*2C
$GPGGA,113148.00,4210.15084,N,00841.32427,W,1,11,0.91,441.9,M,51.9,M,,*4F
$GPGSA,A,3,22,19,20,32,16,28,27,30,11,04,01,,1.55,0.91,1.26*0B
$GPGSV,4,1,14,22,37,055,33,18,04,040,,19,75,079,49,20,07,210,42*7D
$GPGSV,4,2,14,07,02,252,38,32,42,182,51,14,15,093,,16,11,170,40*77
$GPGSV,4,3,14,28,17,321,32,27,47,114,42,30,07,281,38,11,56,287,46*7A
$GPGSV,4,4,14,04,58,275,25,01,40,266,49*78
$GPGLL,4210.15084,N,00841.32427,W,113148.00,A,A*77
$GPZDA,113148.00,04,11,2014,00,00*6B
$GPRMC,113149.00,A,4210.15080,N,00841.32432,W,0.013,,041114,,,A*6C
$GPVTG,,T,,M,0.013,N,0.024,K,A*27
$GPGGA,113149.00,4210.15080,N,00841.32432,W,1,11,0.91,441.9,M,51.9,M,,*4E
$GPGSA,A,3,22,19,20,32,16,28,27,30,11,04,01,,1.55,0.91,1.26*0B
$GPGSV,4,1,14,22,37,055,33,18,04,040,,19,75,079,49,20,07,210,42*7D
$GPGSV,4,2,14,07,02,252,38,32,42,182,51,14,15,093,,16,11,170,40*77
$GPGSV,4,3,14,28,17,321,32,27,47,114,42,30,07,281,38,11,56,287,46*7A
$GPGSV,4,4,14,04,58,275,25,01,40,266,50*70
$GPGLL,4210.15080,N,00841.32432,W,113149.00,A,A*76
$GPZDA,113149.00,04,11,2014,00,00*6A
$GPRMC,113150.00,A,4210.15076,N,00841.32438,W,0.010,,041114,,,A*64
$GPVTG,,T,,M,0.010,N,0.019,K,A*2A
$GPGGA,113150.00,4210.15076,N,00841.32438,W,1,11,0.91,441.8,M,51.9,M,,*44
$GPGSA,A,3,22,19,20,32,16,28,27,30,11,04,01,,1.55,0.91,1.26*0B
$GPGSV,4,1,14,22,37,055,33,18,04,040,,19,75,079,49,20,07,210,42*7D
$GPGSV,4,2,14,07,02,252,38,32,42,182,51,14,15,093,,16,11,170,40*77
$GPGSV,4,3,14,28,17,321,32,27,47,114,42,30,07,281,38,11,56,287,46*7A
$GPGSV,4,4,14,04,58,275,26,01,40,266,49*7B
$GPGLL,4210.15076,N,00841.32438,W,113150.00,A,A*7D
$GPZDA,113150.00,04,11,2014,00,00*62
$GPRMC,113152.00,A,4210.15070,N,00841.32448,W,0.014,,041114,,,A*63
$GPVTG,,T,,M,0.014,N,0.026,K,A*22
$GPGGA,113152.00,4210.15070,N,00841.32448,W,1,11,1.19,441.8,M,51.9,M,,*46
$GPGSA,A,3,22,19,20,32,16,28,27,30,11,04,01,,1.81,1.19,1.37*03
$GPGSV,4,1,14,22,37,055,34,18,04,040,,19,75,079,49,20,07,210,42*7A
$GPGSV,4,2,14,07,02,252,37,32,42,182,50,14,15,093,,16,11,170,40*79
$GPGSV,4,3,14,28,17,321,31,27,47,114,42,30,07,281,37,11,56,287,46*76
$GPGSV,4,4,14,04,58,275,27,01,40,266,49*7A
$GPGLL,4210.15070,N,00841.32448,W,113152.00,A,A*7E
$GPZDA,113152.00,04,11,2014,00,00*60
$GPRMC,113153.00,A,4210.15065,N,00841.32455,W,0.012,,041114,,,A*6C
$GPVTG,,T,,M,0.012,N,0.023,K,A*21
$GPGGA,113153.00,4210.15065,N,00841.32455,W,1,11,0.91,441.8,M,51.9,M,,*4E
$GPGSA,A,3,22,19,20,32,16,28,27,30,11,04,01,,1.55,0.91,1.26*0B
$GPGSV,4,1,14,22,37,055,33,18,04,040,,19,75,079,48,20,07,210,42*7C
$GPGSV,4,2,14,07,02,252,36,32,42,182,50,14,15,093,,16,11,170,40*78
$GPGSV,4,3,14,28,17,321,32,27,46,114,42,30,07,281,37,11,56,287,46*74
$GPGSV,4,4,14,04,58,275,28,01,40,266,49*75
$GPGLL,4210.15065,N,00841.32455,W,113153.00,A,A*77
$GPZDA,113153.00,04,11,2014,00,00*61
$GPRMC,113154.00,A,4210.15062,N,00841.32462,W,0.012,,041114,,,A*68
$GPVTG,,T,,M,0.012,N,0.023,K,A*21
$GPGGA,113154.00,4210.15062,N,00841.32462,W,1,11,1.02,441.8,M,51.9,M,,*41
$GPGSA,A,3,22,19,20,32,16,28,27,30,11,04,01,,1.71,1.02,1.37*06
$GPGSV,4,1,14,22,37,055,33,18,04,040,,19,75,079,49,20,07,210,42*7D
$GPGSV,4,2,14,07,02,252,36,32,42,182,50,14,15,093,,16,11,170,40*78
$GPGSV,4,3,14,28,18,321,29,27,46,114,42,30,07,281,37,11,56,287,46*71
$GPGSV,4,4,14,04,58,275,28,01,40,266,49*75
$GPGLL,4210.15062,N,00841.32462,W,113154.00,A,A*73
$GPZDA,113154.00,04,11,2014,00,00*66
$GPRMC,113155.00,A,4210.15059,N,00841.32469,W,0.010,,041114,,,A*68
$GPVTG,,T,,M,0.010,N,0.018,K,A*2B
$GPGGA,113155.00,4210.15059,N,00841.32469,W,1,11,1.02,441.8,M,51.9,M,,*43
$GPGSA,A,3,22,19,20,32,16,28,27,30,11,04,01,,1.71,1.02,1.37*06
$GPGSV,4,1,14,22,37,055,33,18,04,040,,19,75,079,49,20,07,210,42*7D
$GPGSV,4,2,14,07,02,252,35,32,42,182,50,14,15,093,,16,11,170,40*7B
$GPGSV,4,3,14,28,18,321,29,27,46,114,42,30,07,281,37,11,56,287,46*71
$GPGSV,4,4,14,04,58,275,28,01,40,266,49*75
$GPGLL,4210.15059,N,00841.32469,W,113155.00,A,A*71
$GPZDA,113155.00,04,11,2014,00,00*67
$GPRMC,113156.00,A,4210.15056,N,00841.32476,W,0.013,,041114,,,A*69
$GPVTG,,T,,M,0.013,N,0.024,K,A*27
$GPGGA,113156.00,4210.15056,N,00841.32476,W,1,11,1.02,441.8,M,51.9,M,,*41
$GPGSA,A,3,22,19,20,32,16,28,27,30,11,04,01,,1.71,1.02,1.37*06
$GPGSV,4,1,14,22,37,055,33,18,04,040,,19,75,079,49,20,07,210,42*7D
$GPGSV,4,2,14,07,02,252,35,32,42,182,50,14,15,093,,16,11,170,40*7B
$GPGSV,4,3,14,28,18,321,29,27,46,114,42,30,07,281,37,11,56,287,46*71
$GPGSV,4,4,14,04,58,275,29,01,40,266,49*74
$GPGLL,4210.15056,N,00841.32476,W,113156.00,A,A*73
$GPZDA,113156.00,04,11,2014,00,00*64
$GPRMC,113157.00,A,4210.15054,N,00841.32481,W,0.015,,041114,,,A*64
$GPVTG,,T,,M,0.015,N,0.028,K,A*2D
$GPGGA,113157.00,4210.15054,N,00841.32481,W,1,11,1.02,441.7,M,51.9,M,,*45
$GPGSA,A,3,22,19,20,32,16,28,27,30,11,04,01,,1.71,1.02,1.37*06
$GPGSV,4,1,14,22,37,055,32,18,04,040,,19,75,079,49,20,07,210,42*7C
$GPGSV,4,2,14,07,02,252,35,32,42,182,50,14,15,093,,16,11,170,40*7B
$GPGSV,4,3,14,28,18,321,29,27,46,114,42,30,07,281,38,11,56,287,46*7E
$GPGSV,4,4,14,04,58,275,29,01,40,266,49*74
$GPGLL,4210.15054,N,00841.32481,W,113157.00,A,A*78
$GPZDA,113157.00,04,11,2014,00,00*65
$GPRMC,113158.00,A,4210.15051,N,00841.32488,W,0.008,,041114,,,A*6B
$GPVTG,,T,,M,0.008,N,0.016,K,A*2C
$GPGGA,113158.00,4210.15051,N,00841.32488,W,1,11,1.02,441.7,M,51.9,M,,*46
$GPGSA,A,3,22,19,20,32,16,28,27,30,11,04,01,,1.71,1.02,1.37*06
$GPGSV,4,1,14,22,37,055,33,18,04,040,,19,75,079,49,20,07,210,42*7D
$GPGSV,4,2,14,07,02,252,34,32,42,182,50,14,15,093,,16,11,170,40*7A
$GPGSV,4,3,14,28,18,321,29,27,46,114,43,30,07,281,38,11,56,287,46*7F
$GPGSV,4,4,14,04,58,275,30,01,40,266,49*7C
$GPGLL,4210.15051,N,00841.32488,W,113158.00,A,A*7B
$GPZDA,113158.00,04,11,2014,00,00*6A
$GPRMC,113159.00,A,4210.15049,N,00841.32494,W,0.013,,041114,,,A*64
$GPVTG,,T,,M,0.013,N,0.023,K,A*20
$GPGGA,113159.00,4210.15049,N,00841.32494,W,1,11,1.02,441.7,M,51.9,M,,*43
$GPGSA,A,3,22,19,20,32,16,28,27,30,11,04,01,,1.71,1.02,1.37*06
$GPGSV,4,1,14,22,37,055,32,18,04,040,,19,75,079,49,20,07,210,42*7C
$GPGSV,4,2,14,07,02,252,34,32,42,182,50,14,15,093,,16,11,170,41*7B
$GPGSV,4,3,14,28,18,321,31,27,46,114,43,30,07,281,38,11,56,287,46*76
$GPGSV,4,4,14,04,58,275,30,01,40,266,49*7C
$GPGLL,4210.15049,N,00841.32494,W,113159.00,A,A*7E
$GPZDA,113159.00,04,11,2014,00,00*6B
$GPRMC,113200.00,A,4210.15047,N,00841.32499,W,0.013,,041114,,,A*68
$GPVTG,,T,,M,0.013,N,0.024,K,A*27
$GPGGA,113200.00,4210.15047,N,00841.32499,W,1,11,1.02,441.7,M,51.9,M,,*4F
$GPGSA,A,3,22,19,20,32,16,28,27,30,11,04,01,,1.71,1.02,1.37*06
$GPGSV,4,1,14,22,37,055,32,18,04,040,,19,75,079,49,20,07,210,42*7C
$GPGSV,4,2,14,07,02,252,33,32,42,182,50,14,15,093,,16,11,170,41*7C
$GPGSV,4,3,14,28,18,321,31,27,46,114,42,30,07,281,38,11,56,287,46*77
$GPGSV,4,4,14,04,58,275,31,01,40,266,49*7D
$GPGLL,4210.15047,N,00841.32499,W,113200.00,A,A*72
$GPZDA,113200.00,04,11,2014,00,00*64
$GPRMC,113201.00,A,4210.15046,N,00841.32503,W,0.014,,041114,,,A*6D
$GPVTG,,T,,M,0.014,N,0.025,K,A*21
$GPGGA,113201.00,4210.15046,N,00841.32503,W,1,11,1.02,441.6,M,51.9,M,,*4C
$GPGSA,A,3,22,19,20,32,16,28,27,30,11,04,01,,1.71,1.02,1.37*06
$GPGSV,4,1,14,22,37,055,32,18,04,040,,19,75,079,49,20,07,210,43*7D
$GPGSV,4,2,14,07,02,252,32,32,42,182,50,14,15,093,,16,11,170,40*7C
$GPGSV,4,3,14,28,18,321,32,27,46,114,42,30,07,281,38,11,56,287,46*74
$GPGSV,4,4,14,04,58,275,32,01,40,266,49*7E
$GPGLL,4210.15046,N,00841.32503,W,113201.00,A,A*70
$GPZDA,113201.00,04,11,2014,00,00*65
$GPRMC,113202.00,A,4210.15041,N,00841.32508,W,0.013,,041114,,,A*65
$GPVTG,,T,,M,0.013,N,0.025,K,A*26
$GPGGA,113202.00,4210.15041,N,00841.32508,W,1,11,0.91,441.7,M,51.9,M,,*49
$GPGSA,A,3,22,19,20,32,16,28,27,30,11,04,01,,1.55,0.91,1.26*0B
$GPGSV,4,1,14,22,37,055,32,18,04,040,,19,75,079,49,20,07,210,43*7D
$GPGSV,4,2,14,07,02,252,32,32,42,182,50,14,15,093,,16,11,170,40*7C
$GPGSV,4,3,14,28,18,321,32,27,46,114,43,30,07,281,38,11,56,287,46*75
$GPGSV,4,4,14,04,58,275,32,01,40,266,49*7E
$GPGLL,4210.15041,N,00841.32508,W,113202.00,A,A*7F
$GPZDA,113202.00,04,11,2014,00,00*66
$GPRMC,113203.00,A,4210.15037,N,00841.32514,W,0.014,,041114,,,A*6F
$GPVTG,,T,,M,0.014,N,0.025,K,A*21
$GPGGA,113203.00,4210.15037,N,00841.32514,W,1,11,0.88,441.7,M,51.9,M,,*4C
$GPGSA,A,3,22,19,20,32,16,28,27,30,11,04,01,,1.44,0.88,1.14*02
$GPGSV,4,1,14,22,37,055,31,18,04,040,,19,75,079,49,20,07,210,43*7E
$GPGSV,4,2,14,07,02,252,32,32,42,182,50,14,15,093,,16,11,170,40*7C
$GPGSV,4,3,14,28,18,321,32,27,46,114,42,30,07,281,39,11,56,287,46*75
$GPGSV,4,4,14,04,58,275,34,01,40,266,49*78
$GPGLL,4210.15037,N,00841.32514,W,113203.00,A,A*72
$GPZDA,113203.00,04,11,2014,00,00*67
$GPRMC,113204.00,A,4210.15033,N,00841.32519,W,0.017,,041114,,,A*62
$GPVTG,,T,,M,0.017,N,0.031,K,A*27
$GPGGA,113204.00,4210.15033,N,00841.32519,W,1,11,0.88,441.8,M,51.9,M,,*4D
$GPGSA,A,3,22,19,20,32,16,28,27,30,11,04,01,,1.44,0.88,1.14*02
$GPGSV,4,1,14,22,37,055,31,18,04,040,,19,75,079,49,20,07,210,43*7E
$GPGSV,4,2,14,07,02,252,31,32,42,182,50,14,15,093,,16,11,170,40*7F
$GPGSV,4,3,14,28,18,321,32,27,46,114,42,30,07,281,39,11,56,287,46*75
$GPGSV,4,4,14,04,58,275,33,01,40,266,49*7F
$GPGLL,4210.15033,N,00841.32519,W,113204.00,A,A*7C
$GPZDA,113204.00,04,11,2014,00,00*60
$GPRMC,113205.00,A,4210.15032,N,00841.32525,W,0.011,,041114,,,A*6B
$GPVTG,,T,,M,0.011,N,0.020,K,A*21
$GPGGA,113205.00,4210.15032,N,00841.32525,W,1,11,1.00,441.8,M,51.9,M,,*43
$GPGSA,A,3,22,19,20,32,16,28,27,30,11,04,01,,1.61,1.00,1.27*04
$GPGSV,4,1,14,22,37,055,32,18,04,040,,19,75,079,49,20,07,210,43*7D
$GPGSV,4,2,14,07,02,252,31,32,42,182,50,14,15,093,,16,11,170,40*7F
$GPGSV,4,3,14,28,18,321,33,27,46,114,42,30,07,281,39,11,56,287,46*74
$GPGSV,4,4,14,04,58,275,34,01,40,266,49*78
$GPGLL,4210.15032,N,00841.32525,W,113205.00,A,A*73
$GPZDA,113205.00,04,11,2014,00,00*61
$GPRMC,113206.00,A,4210.15027,N,00841.32531,W,0.007,,041114,,,A*6E
$GPVTG,,T,,M,0.007,N,0.013,K,A*26
$GPGGA,113206.00,4210.15027,N,00841.32531,W,1,11,0.88,441.8,M,51.9,M,,*40
$GPGSA,A,3,22,19,20,32,16,28,27,30,11,04,01,,1.44,0.88,1.14*02
$GPGSV,4,1,14,22,37,055,31,18,04,040,,19,75,079,49,20,07,210,43*7E
$GPGSV,4,2,14,07,02,252,30,32,42,182,50,14,15,093,,16,11,170,40*7E
$GPGSV,4,3,14,28,18,321,33,27,46,114,42,30,07,281,39,11,56,287,46*74
$GPGSV,4,4,14,04,58,275,35,01,40,266,49*79
$GPGLL,4210.15027,N,00841.32531,W,113206.00,A,A*71
$GPZDA,113206.00,04,11,2014,00,00*62
$GPRMC,113207.00,A,4210.15023,N,00841.32536,W,0.013,,041114,,,A*69
$GPVTG,,T,,M,0.013,N,0.023,K,A*20
$GPGGA,113207.00,4210.15023,N,00841.32536,W,1,11,0.88,441.9,M,51.9,M,,*43
$GPGSA,A,3,22,19,20,32,16,28,27,30,11,04,01,,1.44,0.88,1.14*02
$GPGSV,4,1,14,22,37,055,31,18,04,040,,19,75,079,49,20,07,210,43*7E
$GPGSV,4,2,14,07,02,252,30,32,42,182,50,14,15,093,,16,11,170,40*7E
$GPGSV,4,3,14,28,18,321,33,27,46,114,42,30,07,281,39,11,56,287,46*74
$GPGSV,4,4,14,04,58,275,34,01,40,266,49*78
$GPGLL,4210.15023,N,00841.32536,W,113207.00,A,A*73
$GPZDA,113207.00,04,11,2014,00,00*63
$GPRMC,113208.00,A,4210.15018,N,00841.32541,W,0.014,,041114,,,A*69
$GPVTG,,T,,M,0.014,N,0.025,K,A*21
$GPGGA,113208.00,4210.15018,N,00841.32541,W,1,11,0.88,442.0,M,51.9,M,,*4E
$GPGSA,A,3,22,19,20,32,16,28,27,30,11,04,01,,1.44,0.88,1.14*02
$GPGSV,4,1,14,22,37,055,31,18,04,040,,19,75,079,49,20,07,210,43*7E
$GPGSV,4,2,14,07,02,252,29,32,42,182,50,14,15,093,,16,11,170,40*76
$GPGSV,4,3,14,28,18,321,33,27,46,114,42,30,07,281,39,11,56,287,46*74
$GPGSV,4,4,14,04,58,275,35,01,40,266,49*79
$GPGLL,4210.15018,N,00841.32541,W,113208.00,A,A*74
$GPZDA,113208.00,04,11,2014,00,00*6C
$GPRMC,113209.00,A,4210.15016,N,00841.32547,W,0.013,,041114,,,A*67
$GPVTG,,T,,M,0.013,N,0.024,K,A*27
$GPGGA,113209.00,4210.15016,N,00841.32547,W,1,11,1.14,442.1,M,51.9,M,,*42
$GPGSA,A,3,22,19,20,32,16,28,27,30,11,04,01,,1.68,1.14,1.23*0C
$GPGSV,4,1,14,22,37,055,30,18,04,040,,19,75,079,49,20,07,210,43*7F
$GPGSV,4,2,14,07,02,252,28,32,42,182,50,14,15,093,,16,11,170,40*77
$GPGSV,4,3,14,28,18,321,33,27,46,114,42,30,07,281,40,11,56,287,46*7A
$GPGSV,4,4,14,04,58,275,36,01,40,266,49*7A
$GPGLL,4210.15016,N,00841.32547,W,113209.00,A,A*7D
$GPZDA,113209.00,04,11,2014,00,00*6D
$GPRMC,113210.00,A,4210.15014,N,00841.32551,W,0.012,,041114,,,A*6B
$GPVTG,,T,,M,0.012,N,0.021,K,A*23
$GPGGA,113210.00,4210.15014,N,00841.32551,W,1,11,1.15,442.3,M,51.9,M,,*4C
$GPGSA,A,3,22,19,20,32,16,28,27,30,11,04,01,,1.68,1.15,1.23*0D
$GPGSV,4,1,14,22,37,055,30,18,04,040,,19,75,079,48,20,07,210,43*7E
$GPGSV,4,2,14,07,02,252,30,32,42,182,50,14,15,093,,16,11,170,40*7E
$GPGSV,4,3,14,28,18,321,33,27,46,114,42,30,07,281,41,11,56,287,46*7B
$GPGSV,4,4,14,04,58,275,36,01,40,266,49*7A
$GPGLL,4210.15014,N,00841.32551,W,113210.00,A,A*70
$GPZDA,113210.00,04,11,2014,00,00*65
$GPRMC,113211.00,A,4210.15013,N,00841.32552,W,0.010,,041114,,,A*6C
$GPVTG,,T,,M,0.010,N,0.018,K,A*2B
$GPGGA,113211.00,4210.15013,N,00841.32552,W,1,11,1.14,442.3,M,51.9,M,,*48
$GPGSA,A,3,22,19,20,32,16,28,27,30,11,04,01,,1.68,1.14,1.23*0C
$GPGSV,4,1,14,22,37,055,30,18,04,040,,19,75,079,48,20,07,210,43*7E
$GPGSV,4,2,14,07,02,252,30,32,42,182,51,14,15,093,,16,11,170,40*7F
$GPGSV,4,3,14,28,18,321,33,27,46,114,42,30,07,281,41,11,56,287,45*78
$GPGSV,4,4,14,04,58,275,36,01,40,266,49*7A
$GPGLL,4210.15013,N,00841.32552,W,113211.00,A,A*75
$GPZDA,113211.00,04,11,2014,00,00*64
$GPRMC,113212.00,A,4210.15010,N,00841.32555,W,0.012,,041114,,,A*69
$GPVTG,,T,,M,0.012,N,0.022,K,A*20
$GPGGA,113212.00,4210.15010,N,00841.32555,W,1,11,1.14,442.4,M,51.9,M,,*48
$GPGSA,A,3,22,19,20,32,16,28,27,30,11,04,01,,1.68,1.14,1.23*0C
$GPGSV,4,1,14,22,37,055,30,18,04,040,,19,75,079,48,20,07,210,43*7E
$GPGSV,4,2,14,07,02,252,31,32,42,182,51,14,15,093,,16,11,170,40*7E
$GPGSV,4,3,14,28,18,321,35,27,46,114,42,30,07,281,41,11,56,287,45*7E
$GPGSV,4,4,14,04,58,275,37,01,40,266,49*7B
$GPGLL,4210.15010,N,00841.32555,W,113212.00,A,A*72
$GPZDA,113212.00,04,11,2014,00,00*67
$GPRMC,113213.00,A,4210.15006,N,00841.32558,W,0.011,,041114,,,A*61
$GPVTG,,T,,M,0.011,N,0.020,K,A*21
$GPGGA,113213.00,4210.15006,N,00841.32558,W,1,11,1.15,442.6,M,51.9,M,,*40
$GPGSA,A,3,22,19,20,32,16,28,27,30,11,04,01,,1.68,1.15,1.23*0D
$GPGSV,4,1,14,22,37,055,30,18,04,040,,19,75,079,48,20,07,210,44*79
$GPGSV,4,2,14,07,02,252,34,32,42,182,51,14,15,093,,16,11,170,40*7B
$GPGSV,4,3,14,28,18,321,36,27,46,114,42,30,07,281,42,11,56,287,45*7E
$GPGSV,4,4,14,04,58,275,38,01,40,266,49*74
$GPGLL,4210.15006,N,00841.32558,W,113213.00,A,A*79
$GPZDA,113213.00,04,11,2014,00,00*66
$GPRMC,113214.00,A,4210.15007,N,00841.32559,W,0.013,,041114,,,A*64
$GPVTG,,T,,M,0.013,N,0.025,K,A*26
$GPGGA,113214.00,4210.15007,N,00841.32559,W,1,11,1.51,442.7,M,51.9,M,,*46
$GPGSA,A,3,22,19,20,32,16,28,27,30,11,04,01,,2.18,1.51,1.58*05
$GPGSV,4,1,14,22,37,055,29,18,04,040,,19,75,079,48,20,07,210,44*71
$GPGSV,4,2,14,07,02,252,36,32,42,182,51,14,15,093,,16,11,170,40*79
$GPGSV,4,3,14,28,18,321,35,27,46,114,42,30,07,281,41,11,56,287,45*7E
$GPGSV,4,4,14,04,58,275,37,01,40,266,49*7B
$GPGLL,4210.15007,N,00841.32559,W,113214.00,A,A*7E
$GPZDA,113214.00,04,11,2014,00,00*61
$GPRMC,113215.00,A,4210.15008,N,00841.32560,W,0.015,,041114,,,A*66
$GPVTG,,T,,M,0.015,N,0.027,K,A*22
$GPGGA,113215.00,4210.15008,N,00841.32560,W,1,11,1.51,442.8,M,51.9,M,,*4D
$GPGSA,A,3,22,19,20,32,16,28,27,30,11,04,01,,2.18,1.51,1.58*05
$GPGSV,4,1,14,22,37,055,29,18,04,040,,19,75,079,48,20,07,210,44*71
$GPGSV,4,2,14,07,02,252,37,32,42,182,51,14,15,093,,16,11,170,40*78
$GPGSV,4,3,14,28,18,321,36,27,46,114,42,30,07,281,41,11,56,287,45*7D
$GPGSV,4,4,14,04,58,275,38,01,40,266,48*75
$GPGLL,4210.15008,N,00841.32560,W,113215.00,A,A*7A
$GPZDA,113215.00,04,11,2014,00,00*60
$GPRMC,113216.00,A,4210.15010,N,00841.32561,W,0.011,,041114,,,A*69
$GPVTG,,T,,M,0.011,N,0.021,K,A*20
$GPGGA,113216.00,4210.15010,N,00841.32561,W,1,11,1.15,442.8,M,51.9,M,,*46
$GPGSA,A,3,22,19,20,32,16,28,27,30,11,04,01,,1.68,1.15,1.23*0D
$GPGSV,4,1,14,22,37,055,29,18,04,040,,19,75,079,48,20,07,210,44*71
$GPGSV,4,2,14,07,02,252,38,32,42,182,51,14,15,093,,16,11,170,41*76
$GPGSV,4,3,14,28,18,321,36,27,46,114,43,30,07,281,41,11,56,287,45*7C
$GPGSV,4,4,14,04,58,275,38,01,40,266,49*74
$GPGLL,4210.15010,N,00841.32561,W,113216.00,A,A*71
$GPZDA,113216.00,04,11,2014,00,00*63
$GPRMC,113217.00,A,4210.15011,N,00841.32562,W,0.015,,041114,,,A*6E
$GPVTG,,T,,M,0.015,N,0.028,K,A*2D
$GPGGA,113217.00,4210.15011,N,00841.32562,W,1,11,1.15,442.9,M,51.9,M,,*44
$GPGSA,A,3,22,19,20,32,16,28,27,30,11,04,01,,1.68,1.15,1.23*0D
$GPGSV,4,1,14,22,37,055,29,18,04,040,,19,75,079,48,20,07,210,44*71
$GPGSV,4,2,14,07,02,252,38,32,42,182,51,14,15,093,,16,11,170,41*76
$GPGSV,4,3,14,28,18,321,37,27,46,114,43,30,07,281,41,11,56,287,45*7D
$GPGSV,4,4,14,04,58,275,38,01,40,266,49*74
$GPGLL,4210.15011,N,00841.32562,W,113217.00,A,A*72
$GPZDA,113217.00,04,11,2014,00,00*62
$GPRMC,113218.00,A,4210.15012,N,00841.32562,W,0.015,,041114,,,A*62
$GPVTG,,T,,M,0.015,N,0.028,K,A*2D
$GPGGA,113218.00,4210.15012,N,00841.32562,W,1,11,1.15,443.0,M,51.9,M,,*40
$GPGSA,A,3,22,19,20,32,16,28,27,30,11,04,01,,1.68,1.15,1.23*0D
$GPGSV,4,1,14,22,37,055,29,18,04,040,,19,75,079,48,20,07,210,44*71
$GPGSV,4,2,14,07,02,252,38,32,42,182,51,14,15,093,,16,11,170,41*76
$GPGSV,4,3,14,28,18,321,37,27,46,114,43,30,07,281,42,11,56,287,44*7F
$GPGSV,4,4,14,04,58,275,38,01,40,266,48*75
$GPGLL,4210.15012,N,00841.32562,W,113218.00,A,A*7E
$GPZDA,113218.00,04,11,2014,00,00*6D
$GPRMC,113219.00,A,4210.15014,N,00841.32562,W,0.015,,041114,,,A*65
$GPVTG,,T,,M,0.015,N,0.028,K,A*2D
$GPGGA,113219.00,4210.15014,N,00841.32562,W,1,11,1.15,443.1,M,51.9,M,,*46
$GPGSA,A,3,22,19,20,32,16,28,27,30,11,04,01,,1.68,1.15,1.23*0D
$GPGSV,4,1,14,22,37,055,29,18,04,040,,19,75,079,48,20,07,210,44*71
$GPGSV,4,2,14,07,02,252,39,32,42,182,51,14,15,093,,16,11,170,41*77
$GPGSV,4,3,14,28,18,321,37,27,46,114,43,30,07,281,41,11,56,287,44*7C
$GPGSV,4,4,14,04,58,275,38,01,40,266,49*74
$GPGLL,4210.15014,N,00841.32562,W,113219.00,A,A*79
$GPZDA,113219.00,04,11,2014,00,00*6C
$GPRMC,113220.00,A,4210.15016,N,00841.32561,W,0.020,100.05,041114,,,A*72
$GPVTG,100.05,T,,M,0.020,N,0.038,K,A*30
$GPGGA,113220.00,4210.15016,N,00841.32561,W,1,11,1.15,443.2,M,51.9,M,,*4E
$GPGSA,A,3,22,19,20,32,16,28,27,30,11,04,01,,1.68,1.15,1.23*0D
$GPGSV,4,1,14,22,37,055,29,18,04,040,,19,75,079,47,20,07,210,44*7E
$GPGSV,4,2,14,07,02,252,39,32,42,182,51,14,15,093,,16,11,170,41*77
$GPGSV,4,3,14,28,18,321,38,27,46,114,43,30,07,281,41,11,56,287,44*73
$GPGSV,4,4,14,04,58,275,39,01,40,266,49*75
$GPGLL,4210.15016,N,00841.32561,W,113220.00,A,A*72
$GPZDA,113220.00,04,11,2014,00,00*66
$GPRMC,113221.00,A,4210.15019,N,00841.32560,W,0.021,98.81,041114,,,A*40
$GPVTG,98.81,T,,M,0.021,N,0.039,K,A*0C
$GPGGA,113221.00,4210.15019,N,00841.32560,W,1,11,1.15,443.2,M,51.9,M,,*41
$GPGSA,A,3,22,19,20,32,16,28,27,30,11,04,01,,1.68,1.15,1.23*0D
$GPGSV,4,1,14,22,37,055,29,18,04,040,,19,75,079,47,20,07,210,44*7E
$GPGSV,4,2,14,07,02,252,38,32,42,182,51,14,15,093,,16,11,170,41*76
$GPGSV,4,3,14,28,18,321,38,27,46,114,43,30,07,281,41,11,56,287,44*73
$GPGSV,4,4,14,04,58,275,39,01,40,266,49*75
$GPGLL,4210.15019,N,00841.32560,W,113221.00,A,A*7D
$GPZDA,113221.00,04,11,2014,00,00*67
$GPRMC,113222.00,A,4210.15023,N,00841.32559,W,0.016,,041114,,,A*62
$GPVTG,,T,,M,0.016,N,0.030,K,A*27
$GPGGA,113222.00,4210.15023,N,00841.32559,W,1,11,1.15,443.3,M,51.9,M,,*40
$GPGSA,A,3,22,19,20,32,16,28,27,30,11,04,01,,1.68,1.15,1.23*0D
$GPGSV,4,1,14,22,37,055,29,18,04,040,,19,75,079,47,20,07,210,44*7E
$GPGSV,4,2,14,07,02,252,38,32,42,182,51,14,15,093,,16,11,170,41*76
$GPGSV,4,3,14,28,18,321,38,27,46,114,43,30,07,281,41,11,56,287,44*73
$GPGSV,4,4,14,04,58,275,39,01,40,266,48*74
$GPGLL,4210.15023,N,00841.32559,W,113222.00,A,A*7D
$GPZDA,113222.00,04,11,2014,00,00*64
$GPRMC,113223.00,A,4210.15027,N,00841.32558,W,0.018,,041114,,,A*68
$GPVTG,,T,,M,0.018,N,0.034,K,A*2D
$GPGGA,113223.00,4210.15027,N,00841.32558,W,1,11,1.15,443.3,M,51.9,M,,*44
$GPGSA,A,3,22,19,20,32,16,28,27,30,11,04,01,,1.68,1.15,1.23*0D
$GPGSV,4,1,14,22,37,055,29,18,04,040,,19,75,079,47,20,07,210,44*7E
$GPGSV,4,2,14,07,02,252,38,32,42,182,51,14,15,093,,16,11,170,41*76
$GPGSV,4,3,14,28,18,321,38,27,46,114,43,30,07,281,40,11,56,287,44*72
$GPGSV,4,4,14,04,58,275,39,01,40,266,48*74
$GPGLL,4210.15027,N,00841.32558,W,113223.00,A,A*79
$GPZDA,113223.00,04,11,2014,00,00*65
$GPRMC,113224.00,A,4210.15030,N,00841.32558,W,0.020,97.30,041114,,,A*41
$GPVTG,97.30,T,,M,0.020,N,0.037,K,A*06
$GPGGA,113224.00,4210.15030,N,00841.32558,W,1,11,1.15,443.3,M,51.9,M,,*45
$GPGSA,A,3,22,19,20,32,16,28,27,30,11,04,01,,1.68,1.15,1.23*0D
$GPGSV,4,1,14,22,37,055,29,18,04,040,,19,75,079,47,20,07,210,44*7E
$GPGSV,4,2,14,07,01,252,37,32,42,182,51,14,15,093,,16,11,170,41*7A
$GPGSV,4,3,14,28,18,321,38,27,46,114,43,30,07,281,40,11,56,287,43*75
$GPGSV,4,4,14,04,58,275,39,01,40,266,48*74
$GPGLL,4210.15030,N,00841.32558,W,113224.00,A,A*78
$GPZDA,113224.00,04,11,2014,00,00*62
$GPRMC,113225.00,A,4210.15034,N,00841.32557,W,0.013,,041114,,,A*68
$GPVTG,,T,,M,0.013,N,0.024,K,A*27
$GPGGA,113225.00,4210.15034,N,00841.32557,W,1,11,1.15,443.4,M,51.9,M,,*48
$GPGSA,A,3,22,19,20,32,16,28,27,30,11,04,01,,1.68,1.15,1.23*0D
$GPGSV,4,1,14,22,37,055,28,18,04,040,,19,75,079,47,20,07,210,44*7F
$GPGSV,4,2,14,07,01,252,37,32,42,182,52,14,15,093,,16,11,170,41*79
$GPGSV,4,3,14,28,18,321,38,27,46,114,43,30,07,281,39,11,56,287,44*7C
$GPGSV,4,4,14,04,58,275,39,01,40,266,48*74
$GPGLL,4210.15034,N,00841.32557,W,113225.00,A,A*72
$GPZDA,113225.00,04,11,2014,00,00*63
$GPRMC,113226.00,A,4210.15037,N,00841.32557,W,0.019,,041114,,,A*62
$GPVTG,,T,,M,0.019,N,0.036,K,A*2E
$GPGGA,113226.00,4210.15037,N,00841.32557,W,1,11,1.15,443.4,M,51.9,M,,*48
$GPGSA,A,3,22,19,20,32,16,28,27,30,11,04,01,,1.68,1.15,1.23*0D
$GPGSV,4,1,14,22,37,055,28,18,04,040,,19,75,079,47,20,07,210,44*7F
$GPGSV,4,2,14,07,01,252,35,32,42,182,52,14,15,093,,16,11,170,41*7B
$GPGSV,4,3,14,28,18,321,39,27,46,114,43,30,07,281,39,11,56,287,43*7A
$GPGSV,4,4,14,04,58,275,39,01,40,266,48*74
$GPGLL,4210.15037,N,00841.32557,W,113226.00,A,A*72
$GPZDA,113226.00,04,11,2014,00,00*60
$GPRMC,113227.00,A,4210.15039,N,00841.32557,W,0.060,100.01,041114,,,A*7D
$GPVTG,100.01,T,,M,0.060,N,0.110,K,A*3B
$GPGGA,113227.00,4210.15039,N,00841.32557,W,1,11,1.15,443.5,M,51.9,M,,*46
$GPGSA,A,3,22,19,20,32,16,28,27,30,11,04,01,,1.68,1.15,1.23*0D
$GPGSV,4,1,14,22,37,055,28,18,04,040,,19,75,079,47,20,07,210,44*7F
$GPGSV,4,2,14,07,01,252,35,32,42,182,52,14,15,093,,16,11,170,41*7B
$GPGSV,4,3,14,28,18,321,39,27,46,114,43,30,07,281,39,11,56,287,44*7D
$GPGSV,4,4,14,04,58,275,39,01,40,266,48*74
$GPGLL,4210.15039,N,00841.32557,W,113227.00,A,A*7D
$GPZDA,113227.00,04,11,2014,00,00*61
$GPRMC,113228.00,A,4210.15042,N,00841.32557,W,0.003,,041114,,,A*65
$GPVTG,,T,,M,0.003,N,0.006,K,A*26
$GPGGA,113228.00,4210.15042,N,00841.32557,W,1,11,1.15,443.5,M,51.9,M,,*45
$GPGSA,A,3,22,19,20,32,16,28,27,30,11,04,01,,1.68,1.15,1.23*0D
$GPGSV,4,1,14,22,37,055,28,18,04,040,,19,75,079,46,20,07,210,44*7E
$GPGSV,4,2,14,07,01,252,33,32,42,182,52,14,15,093,,16,11,170,41*7D
$GPGSV,4,3,14,28,18,321,39,27,46,114,43,30,07,281,39,11,57,288,44*73
$GPGSV,4,4,14,04,58,275,39,01,40,266,48*74
$GPGLL,4210.15042,N,00841.32557,W,113228.00,A,A*7E
$GPZDA,113228.00,04,11,2014,00,00*6E
$GPRMC,113229.00,A,4210.15046,N,00841.32557,W,0.007,,041114,,,A*64
$GPVTG,,T,,M,0.007,N,0.013,K,A*26
$GPGGA,113229.00,4210.15046,N,00841.32557,W,1,11,1.15,443.5,M,51.9,M,,*40
$GPGSA,A,3,22,19,20,32,16,28,27,30,11,04,01,,1.68,1.15,1.23*0D
$GPGSV,4,1,14,22,37,055,28,18,04,040,,19,75,079,46,20,07,210,44*7E
$GPGSV,4,2,14,07,01,252,32,32,42,182,52,14,15,093,,16,11,170,41*7C
$GPGSV,4,3,14,28,18,321,39,27,46,114,42,30,07,281,38,11,57,288,44*73
$GPGSV,4,4,14,04,58,275,39,01,40,266,48*74
